transforms: 
  - 
    header: 
      seq: 0
      stamp: 
        secs: 1480441048
        nsecs: 372683181
      frame_id: odom
    child_frame_id: base_link
    transform: 
      translation: 
        x: 0.0
        y: 0.0
        z: 0.0
      rotation: 
        x: 0.0
        y: 0.0
        z: 0.0
        w: 1.0
---
transforms: 
  - 
    header: 
      seq: 0
      stamp: 
        secs: 1480441048
        nsecs: 472796995
      frame_id: odom
    child_frame_id: base_link
    transform: 
      translation: 
        x: 0.0
        y: 0.0
        z: 0.0
      rotation: 
        x: 0.0
        y: 0.0
        z: 0.0
        w: 1.0
---
transforms: 
  - 
    header: 
      seq: 0
      stamp: 
        secs: 1480441048
        nsecs: 572553277
      frame_id: odom
    child_frame_id: base_link
    transform: 
      translation: 
        x: 0.0
        y: 0.0
        z: 0.0
      rotation: 
        x: 0.0
        y: 0.0
        z: 0.0
        w: 1.0
---
transforms: 
  - 
    header: 
      seq: 0
      stamp: 
        secs: 1480441048
        nsecs: 672473221
      frame_id: odom
    child_frame_id: base_link
    transform: 
      translation: 
        x: 0.0
        y: 0.0
        z: 0.0
      rotation: 
        x: 0.0
        y: 0.0
        z: 0.0
        w: 1.0
---
transforms: 
  - 
    header: 
      seq: 0
      stamp: 
        secs: 1480441048
        nsecs: 772565118
      frame_id: odom
    child_frame_id: base_link
    transform: 
      translation: 
        x: 0.0
        y: 0.0
        z: 0.0
      rotation: 
        x: 0.0
        y: 0.0
        z: 0.0
        w: 1.0
---
transforms: 
  - 
    header: 
      seq: 0
      stamp: 
        secs: 1480441048
        nsecs: 872361324
      frame_id: odom
    child_frame_id: base_link
    transform: 
      translation: 
        x: 0.0
        y: 0.0
        z: 0.0
      rotation: 
        x: 0.0
        y: 0.0
        z: 0.0
        w: 1.0
---
transforms: 
  - 
    header: 
      seq: 0
      stamp: 
        secs: 1480441048
        nsecs: 972448332
      frame_id: odom
    child_frame_id: base_link
    transform: 
      translation: 
        x: 0.0
        y: 0.0
        z: 0.0
      rotation: 
        x: 0.0
        y: 0.0
        z: 0.0
        w: 1.0
---
transforms: 
  - 
    header: 
      seq: 0
      stamp: 
        secs: 1480441049
        nsecs:  73006911
      frame_id: odom
    child_frame_id: base_link
    transform: 
      translation: 
        x: 0.0
        y: 0.0
        z: 0.0
      rotation: 
        x: 0.0
        y: 0.0
        z: 0.0
        w: 1.0
---
transforms: 
  - 
    header: 
      seq: 0
      stamp: 
        secs: 1480441049
        nsecs: 173180476
      frame_id: odom
    child_frame_id: base_link
    transform: 
      translation: 
        x: 0.0
        y: 0.0
        z: 0.0
      rotation: 
        x: 0.0
        y: 0.0
        z: 0.0
        w: 1.0
---
transforms: 
  - 
    header: 
      seq: 0
      stamp: 
        secs: 1480441049
        nsecs: 273145144
      frame_id: odom
    child_frame_id: base_link
    transform: 
      translation: 
        x: 0.0
        y: 0.0
        z: 0.0
      rotation: 
        x: 0.0
        y: 0.0
        z: 0.0
        w: 1.0
---
transforms: 
  - 
    header: 
      seq: 0
      stamp: 
        secs: 1480441049
        nsecs: 373055986
      frame_id: odom
    child_frame_id: base_link
    transform: 
      translation: 
        x: 0.0
        y: 0.0
        z: 0.0
      rotation: 
        x: 0.0
        y: 0.0
        z: 0.0
        w: 1.0
---
transforms: 
  - 
    header: 
      seq: 0
      stamp: 
        secs: 1480441049
        nsecs: 472975073
      frame_id: odom
    child_frame_id: base_link
    transform: 
      translation: 
        x: 0.0
        y: 0.0
        z: 0.0
      rotation: 
        x: 0.0
        y: 0.0
        z: 0.0
        w: 1.0
---
transforms: 
  - 
    header: 
      seq: 0
      stamp: 
        secs: 1480441049
        nsecs: 573480608
      frame_id: odom
    child_frame_id: base_link
    transform: 
      translation: 
        x: 0.0
        y: 0.0
        z: 0.0
      rotation: 
        x: 0.0
        y: 0.0
        z: 0.0
        w: 1.0
---
transforms: 
  - 
    header: 
      seq: 0
      stamp: 
        secs: 1480441049
        nsecs: 675353047
      frame_id: odom
    child_frame_id: base_link
    transform: 
      translation: 
        x: 0.0
        y: 0.0
        z: 0.0
      rotation: 
        x: 0.0
        y: 0.0
        z: 0.0
        w: 1.0
---
transforms: 
  - 
    header: 
      seq: 0
      stamp: 
        secs: 1480441049
        nsecs: 772798032
      frame_id: odom
    child_frame_id: base_link
    transform: 
      translation: 
        x: 0.0
        y: 0.0
        z: 0.0
      rotation: 
        x: 0.0
        y: 0.0
        z: 0.0
        w: 1.0
---
transforms: 
  - 
    header: 
      seq: 0
      stamp: 
        secs: 1480441049
        nsecs: 872794748
      frame_id: odom
    child_frame_id: base_link
    transform: 
      translation: 
        x: 0.0
        y: 0.0
        z: 0.0
      rotation: 
        x: 0.0
        y: 0.0
        z: 0.0
        w: 1.0
---
transforms: 
  - 
    header: 
      seq: 0
      stamp: 
        secs: 1480441049
        nsecs: 972679547
      frame_id: odom
    child_frame_id: base_link
    transform: 
      translation: 
        x: 0.0
        y: 0.0
        z: 0.0
      rotation: 
        x: 0.0
        y: 0.0
        z: 0.0
        w: 1.0
---
transforms: 
  - 
    header: 
      seq: 0
      stamp: 
        secs: 1480441050
        nsecs:  72568428
      frame_id: odom
    child_frame_id: base_link
    transform: 
      translation: 
        x: 0.0
        y: 0.0
        z: 0.0
      rotation: 
        x: 0.0
        y: 0.0
        z: 0.0
        w: 1.0
---
transforms: 
  - 
    header: 
      seq: 0
      stamp: 
        secs: 1480441050
        nsecs: 173533712
      frame_id: odom
    child_frame_id: base_link
    transform: 
      translation: 
        x: 0.0
        y: 0.0
        z: 0.0
      rotation: 
        x: 0.0
        y: 0.0
        z: 0.0
        w: 1.0
---
transforms: 
  - 
    header: 
      seq: 0
      stamp: 
        secs: 1480441050
        nsecs: 276211125
      frame_id: odom
    child_frame_id: base_link
    transform: 
      translation: 
        x: 0.0
        y: 0.0
        z: 0.0
      rotation: 
        x: 0.0
        y: 0.0
        z: 0.0
        w: 1.0
---
transforms: 
  - 
    header: 
      seq: 0
      stamp: 
        secs: 1480441050
        nsecs: 373403656
      frame_id: odom
    child_frame_id: base_link
    transform: 
      translation: 
        x: 0.0
        y: 0.0
        z: 0.0
      rotation: 
        x: 0.0
        y: 0.0
        z: 0.0
        w: 1.0
---
transforms: 
  - 
    header: 
      seq: 0
      stamp: 
        secs: 1480441050
        nsecs: 474160081
      frame_id: odom
    child_frame_id: base_link
    transform: 
      translation: 
        x: 0.0
        y: 0.0
        z: 0.0
      rotation: 
        x: 0.0
        y: 0.0
        z: 0.0
        w: 1.0
---
transforms: 
  - 
    header: 
      seq: 0
      stamp: 
        secs: 1480441050
        nsecs: 573363996
      frame_id: odom
    child_frame_id: base_link
    transform: 
      translation: 
        x: 0.0
        y: 0.0
        z: 0.0
      rotation: 
        x: 0.0
        y: 0.0
        z: 0.0
        w: 1.0
---
transforms: 
  - 
    header: 
      seq: 0
      stamp: 
        secs: 1480441050
        nsecs: 673247122
      frame_id: odom
    child_frame_id: base_link
    transform: 
      translation: 
        x: 0.0
        y: 0.0
        z: 0.0
      rotation: 
        x: 0.0
        y: 0.0
        z: 0.0
        w: 1.0
---
transforms: 
  - 
    header: 
      seq: 0
      stamp: 
        secs: 1480441050
        nsecs: 773252807
      frame_id: odom
    child_frame_id: base_link
    transform: 
      translation: 
        x: 0.0
        y: 0.0
        z: 0.0
      rotation: 
        x: 0.0
        y: 0.0
        z: 0.0
        w: 1.0
---
transforms: 
  - 
    header: 
      seq: 0
      stamp: 
        secs: 1480441050
        nsecs: 873138202
      frame_id: odom
    child_frame_id: base_link
    transform: 
      translation: 
        x: 0.0
        y: 0.0
        z: 0.0
      rotation: 
        x: 0.0
        y: 0.0
        z: 0.0
        w: 1.0
---
transforms: 
  - 
    header: 
      seq: 0
      stamp: 
        secs: 1480441050
        nsecs: 973059334
      frame_id: odom
    child_frame_id: base_link
    transform: 
      translation: 
        x: 0.0
        y: 0.0
        z: 0.0
      rotation: 
        x: 0.0
        y: 0.0
        z: 0.0
        w: 1.0
---
transforms: 
  - 
    header: 
      seq: 0
      stamp: 
        secs: 1480441051
        nsecs:  73021667
      frame_id: odom
    child_frame_id: base_link
    transform: 
      translation: 
        x: 0.0
        y: 0.0
        z: 0.0
      rotation: 
        x: 0.0
        y: 0.0
        z: 0.0
        w: 1.0
---
transforms: 
  - 
    header: 
      seq: 0
      stamp: 
        secs: 1480441051
        nsecs: 173887680
      frame_id: odom
    child_frame_id: base_link
    transform: 
      translation: 
        x: 0.0
        y: 0.0
        z: 0.0
      rotation: 
        x: 0.0
        y: 0.0
        z: 0.0
        w: 1.0
---
transforms: 
  - 
    header: 
      seq: 0
      stamp: 
        secs: 1480441051
        nsecs: 273875500
      frame_id: odom
    child_frame_id: base_link
    transform: 
      translation: 
        x: 0.0
        y: 0.0
        z: 0.0
      rotation: 
        x: 0.0
        y: 0.0
        z: 0.0
        w: 1.0
---
transforms: 
  - 
    header: 
      seq: 0
      stamp: 
        secs: 1480441051
        nsecs: 373873787
      frame_id: odom
    child_frame_id: base_link
    transform: 
      translation: 
        x: 0.0
        y: 0.0
        z: 0.0
      rotation: 
        x: 0.0
        y: 0.0
        z: 0.0
        w: 1.0
---
transforms: 
  - 
    header: 
      seq: 0
      stamp: 
        secs: 1480441051
        nsecs: 473742784
      frame_id: odom
    child_frame_id: base_link
    transform: 
      translation: 
        x: 0.0
        y: 0.0
        z: 0.0
      rotation: 
        x: 0.0
        y: 0.0
        z: 0.0
        w: 1.0
---
transforms: 
  - 
    header: 
      seq: 0
      stamp: 
        secs: 1480441051
        nsecs: 573670722
      frame_id: odom
    child_frame_id: base_link
    transform: 
      translation: 
        x: 0.0
        y: 0.0
        z: 0.0
      rotation: 
        x: 0.0
        y: 0.0
        z: 0.0
        w: 1.0
---
transforms: 
  - 
    header: 
      seq: 0
      stamp: 
        secs: 1480441051
        nsecs: 673760283
      frame_id: odom
    child_frame_id: base_link
    transform: 
      translation: 
        x: 0.0
        y: 0.0
        z: 0.0
      rotation: 
        x: 0.0
        y: 0.0
        z: 0.0
        w: 1.0
---
transforms: 
  - 
    header: 
      seq: 0
      stamp: 
        secs: 1480441051
        nsecs: 773596529
      frame_id: odom
    child_frame_id: base_link
    transform: 
      translation: 
        x: 0.0
        y: 0.0
        z: 0.0
      rotation: 
        x: 0.0
        y: 0.0
        z: 0.0
        w: 1.0
---
transforms: 
  - 
    header: 
      seq: 0
      stamp: 
        secs: 1480441051
        nsecs: 873506876
      frame_id: odom
    child_frame_id: base_link
    transform: 
      translation: 
        x: 0.0
        y: 0.0
        z: 0.0
      rotation: 
        x: 0.0
        y: 0.0
        z: 0.0
        w: 1.0
---
transforms: 
  - 
    header: 
      seq: 0
      stamp: 
        secs: 1480441051
        nsecs: 973409814
      frame_id: odom
    child_frame_id: base_link
    transform: 
      translation: 
        x: 0.0
        y: 0.0
        z: 0.0
      rotation: 
        x: 0.0
        y: 0.0
        z: 0.0
        w: 1.0
---
transforms: 
  - 
    header: 
      seq: 0
      stamp: 
        secs: 1480441052
        nsecs:  43899285
      frame_id: camera_link
    child_frame_id: head_1
    transform: 
      translation: 
        x: 2.34041363243
        y: -0.0625670638867
        z: 0.617925119006
      rotation: 
        x: 0.493901457413
        y: 0.414388188453
        z: 0.542390082172
        w: 0.538662026133
---
transforms: 
  - 
    header: 
      seq: 0
      stamp: 
        secs: 1480441052
        nsecs:  43937097
      frame_id: camera_link
    child_frame_id: neck_1
    transform: 
      translation: 
        x: 2.38630275019
        y: -0.0425717209185
        z: 0.360517540776
      rotation: 
        x: 0.493901457413
        y: 0.414388188453
        z: 0.542390082172
        w: 0.538662026133
---
transforms: 
  - 
    header: 
      seq: 0
      stamp: 
        secs: 1480441052
        nsecs:  43943013
      frame_id: camera_link
    child_frame_id: torso_1
    transform: 
      translation: 
        x: 2.43731703683
        y: -0.0213253463223
        z: 0.150335773798
      rotation: 
        x: 0.483191670458
        y: 0.391458203002
        z: 0.561611377212
        w: 0.545782874308
---
transforms: 
  - 
    header: 
      seq: 0
      stamp: 
        secs: 1480441052
        nsecs:  43948600
      frame_id: camera_link
    child_frame_id: left_shoulder_1
    transform: 
      translation: 
        x: 2.39602295458
        y: 0.111097515684
        z: 0.378410540958
      rotation: 
        x: 0.733120927346
        y: 0.669418944775
        z: -0.00154684708136
        w: 0.120039949714
---
transforms: 
  - 
    header: 
      seq: 0
      stamp: 
        secs: 1480441052
        nsecs:  43954591
      frame_id: camera_link
    child_frame_id: left_elbow_1
    transform: 
      translation: 
        x: 2.42615723198
        y: 0.396071076082
        z: 0.331073058439
      rotation: 
        x: 0.462853885084
        y: 0.51478948052
        z: 0.568537528081
        w: -0.444435766981
---
transforms: 
  - 
    header: 
      seq: 0
      stamp: 
        secs: 1480441052
        nsecs:  43958964
      frame_id: camera_link
    child_frame_id: left_hand_1
    transform: 
      translation: 
        x: 2.37600081844
        y: 0.387882812014
        z: 0.610686584961
      rotation: 
        x: 0.499999999997
        y: 0.500001836603
        z: 0.499999999997
        w: 0.499998163397
---
transforms: 
  - 
    header: 
      seq: 0
      stamp: 
        secs: 1480441052
        nsecs:  43963581
      frame_id: camera_link
    child_frame_id: right_shoulder_1
    transform: 
      translation: 
        x: 2.3765825458
        y: -0.19624096515
        z: 0.342624510076
      rotation: 
        x: 0.723121324109
        y: 0.622845797876
        z: 0.298031218919
        w: -0.0183318094065
---
transforms: 
  - 
    header: 
      seq: 0
      stamp: 
        secs: 1480441052
        nsecs:  43969654
      frame_id: camera_link
    child_frame_id: right_elbow_1
    transform: 
      translation: 
        x: 2.36599477584
        y: -0.398939368301
        z: 0.239240790424
      rotation: 
        x: 0.705358127775
        y: 0.430408572574
        z: -0.337930437467
        w: 0.45057895165
---
transforms: 
  - 
    header: 
      seq: 0
      stamp: 
        secs: 1480441052
        nsecs:  44014186
      frame_id: camera_link
    child_frame_id: right_hand_1
    transform: 
      translation: 
        x: 2.25200356269
        y: -0.484952421292
        z: 0.484952421298
      rotation: 
        x: 0.499999999997
        y: 0.500001836603
        z: 0.499999999997
        w: 0.499998163397
---
transforms: 
  - 
    header: 
      seq: 0
      stamp: 
        secs: 1480441052
        nsecs:  44019782
      frame_id: camera_link
    child_frame_id: left_hip_1
    transform: 
      translation: 
        x: 2.49462103981
        y: 0.0993557590196
        z: -0.0482679523189
      rotation: 
        x: 0.493347276158
        y: 0.442557658011
        z: 0.511334966706
        w: 0.547071966259
---
transforms: 
  - 
    header: 
      seq: 0
      stamp: 
        secs: 1480441052
        nsecs:  44024323
      frame_id: camera_link
    child_frame_id: left_knee_1
    transform: 
      translation: 
        x: 2.54274508565
        y: 0.103160844542
        z: -0.4371573808
      rotation: 
        x: 0.402933362414
        y: 0.337956908238
        z: 0.596505497525
        w: 0.606309347652
---
transforms: 
  - 
    header: 
      seq: 0
      stamp: 
        secs: 1480441052
        nsecs:  44028819
      frame_id: camera_link
    child_frame_id: left_foot_1
    transform: 
      translation: 
        x: 2.73122681511
        y: 0.118351958932
        z: -0.809866233535
      rotation: 
        x: 0.499999999997
        y: 0.500001836603
        z: 0.499999999997
        w: 0.499998163397
---
transforms: 
  - 
    header: 
      seq: 0
      stamp: 
        secs: 1480441052
        nsecs:  44034356
      frame_id: camera_link
    child_frame_id: right_hip_1
    transform: 
      translation: 
        x: 2.48204160712
        y: -0.0995137024718
        z: -0.0714240035216
      rotation: 
        x: 0.396817306715
        y: 0.41496339883
        z: 0.519624161701
        w: 0.632718051978
---
transforms: 
  - 
    header: 
      seq: 0
      stamp: 
        secs: 1480441052
        nsecs:  44039492
      frame_id: camera_link
    child_frame_id: right_knee_1
    transform: 
      translation: 
        x: 2.60844137086
        y: -0.155374482382
        z: -0.430879545941
      rotation: 
        x: 0.54874486899
        y: 0.416049258467
        z: 0.525855169851
        w: 0.499257872874
---
transforms: 
  - 
    header: 
      seq: 0
      stamp: 
        secs: 1480441052
        nsecs:  44043880
      frame_id: camera_link
    child_frame_id: right_foot_1
    transform: 
      translation: 
        x: 2.6370550981
        y: -0.0904740095403
        z: -0.842749859789
      rotation: 
        x: 0.499999999997
        y: 0.500001836603
        z: 0.499999999997
        w: 0.499998163397
---
transforms: 
  - 
    header: 
      seq: 0
      stamp: 
        secs: 1480441052
        nsecs:  72269385
      frame_id: camera_link
    child_frame_id: head_1
    transform: 
      translation: 
        x: 2.34090092817
        y: -0.0605495831539
        z: 0.617506232939
      rotation: 
        x: 0.487766989399
        y: 0.399724874688
        z: 0.549057638939
        w: 0.548488010562
---
transforms: 
  - 
    header: 
      seq: 0
      stamp: 
        secs: 1480441052
        nsecs:  72303983
      frame_id: camera_link
    child_frame_id: neck_1
    transform: 
      translation: 
        x: 2.39168052105
        y: -0.0417158242422
        z: 0.384597538112
      rotation: 
        x: 0.487766989399
        y: 0.399724874688
        z: 0.549057638939
        w: 0.548488010562
---
transforms: 
  - 
    header: 
      seq: 0
      stamp: 
        secs: 1480441052
        nsecs:  72312138
      frame_id: camera_link
    child_frame_id: torso_1
    transform: 
      translation: 
        x: 2.44378832225
        y: -0.0227774709894
        z: 0.174478984281
      rotation: 
        x: 0.482434651072
        y: 0.389451233091
        z: 0.557522467365
        w: 0.552044602248
---
transforms: 
  - 
    header: 
      seq: 0
      stamp: 
        secs: 1480441052
        nsecs:  72317926
      frame_id: camera_link
    child_frame_id: left_shoulder_1
    transform: 
      translation: 
        x: 2.40330404155
        y: 0.111935883188
        z: 0.401329001762
      rotation: 
        x: 0.738409524224
        y: 0.653205797793
        z: -0.0084794702849
        w: 0.167336961989
---
transforms: 
  - 
    header: 
      seq: 0
      stamp: 
        secs: 1480441052
        nsecs:  72438100
      frame_id: camera_link
    child_frame_id: left_elbow_1
    transform: 
      translation: 
        x: 2.44406332044
        y: 0.379535222666
        z: 0.337023187979
      rotation: 
        x: 0.469330548994
        y: 0.5397360092
        z: 0.570130978076
        w: -0.404183799764
---
transforms: 
  - 
    header: 
      seq: 0
      stamp: 
        secs: 1480441052
        nsecs:  72448178
      frame_id: camera_link
    child_frame_id: left_hand_1
    transform: 
      translation: 
        x: 2.37853107479
        y: 0.392418679462
        z: 0.610570608869
      rotation: 
        x: 0.499999999997
        y: 0.500001836603
        z: 0.499999999997
        w: 0.499998163397
---
transforms: 
  - 
    header: 
      seq: 0
      stamp: 
        secs: 1480441052
        nsecs:  72454266
      frame_id: camera_link
    child_frame_id: right_shoulder_1
    transform: 
      translation: 
        x: 2.38005700055
        y: -0.195367539302
        z: 0.367866074462
      rotation: 
        x: 0.72338452283
        y: 0.614966872331
        z: 0.313185785436
        w: -0.0211007550997
---
transforms: 
  - 
    header: 
      seq: 0
      stamp: 
        secs: 1480441052
        nsecs:  72460875
      frame_id: camera_link
    child_frame_id: right_elbow_1
    transform: 
      translation: 
        x: 2.36849070593
        y: -0.408971890871
        z: 0.251118192145
      rotation: 
        x: 0.70211637021
        y: 0.40786704916
        z: -0.358333778034
        w: 0.460732000638
---
transforms: 
  - 
    header: 
      seq: 0
      stamp: 
        secs: 1480441052
        nsecs:  72466368
      frame_id: camera_link
    child_frame_id: right_hand_1
    transform: 
      translation: 
        x: 2.25343082555
        y: -0.476959190951
        z: 0.497510521524
      rotation: 
        x: 0.499999999997
        y: 0.500001836603
        z: 0.499999999997
        w: 0.499998163397
---
transforms: 
  - 
    header: 
      seq: 0
      stamp: 
        secs: 1480441052
        nsecs:  72471891
      frame_id: camera_link
    child_frame_id: left_hip_1
    transform: 
      translation: 
        x: 2.50341874719
        y: 0.0956005880883
        z: -0.0248113653718
      rotation: 
        x: 0.478946308364
        y: 0.417751506978
        z: 0.527421807438
        w: 0.563844259669
---
transforms: 
  - 
    header: 
      seq: 0
      stamp: 
        secs: 1480441052
        nsecs:  72477381
      frame_id: camera_link
    child_frame_id: left_knee_1
    transform: 
      translation: 
        x: 2.58370141776
        y: 0.101840918994
        z: -0.429414702872
      rotation: 
        x: 0.419298773679
        y: 0.354343819546
        z: 0.575565102116
        w: 0.606097194489
---
transforms: 
  - 
    header: 
      seq: 0
      stamp: 
        secs: 1480441052
        nsecs:  72482840
      frame_id: camera_link
    child_frame_id: left_foot_1
    transform: 
      translation: 
        x: 2.72879490643
        y: 0.106975057909
        z: -0.761287428215
      rotation: 
        x: 0.499999999997
        y: 0.500001836603
        z: 0.499999999997
        w: 0.499998163397
---
transforms: 
  - 
    header: 
      seq: 0
      stamp: 
        secs: 1480441052
        nsecs:  72488343
      frame_id: camera_link
    child_frame_id: right_hip_1
    transform: 
      translation: 
        x: 2.48837349973
        y: -0.103278815932
        z: -0.046467773728
      rotation: 
        x: 0.395419477919
        y: 0.3950597334
        z: 0.536650072389
        w: 0.632121778878
---
transforms: 
  - 
    header: 
      seq: 0
      stamp: 
        secs: 1480441052
        nsecs:  72494010
      frame_id: camera_link
    child_frame_id: right_knee_1
    transform: 
      translation: 
        x: 2.6385075293
        y: -0.14893098205
        z: -0.425434801643
      rotation: 
        x: 0.557848914274
        y: 0.44064897195
        z: 0.499102179449
        w: 0.495509926068
---
transforms: 
  - 
    header: 
      seq: 0
      stamp: 
        secs: 1480441052
        nsecs:  76494413
      frame_id: odom
    child_frame_id: base_link
    transform: 
      translation: 
        x: 0.0
        y: 0.0
        z: 0.0
      rotation: 
        x: 0.0
        y: 0.0
        z: 0.0
        w: 1.0
---
transforms: 
  - 
    header: 
      seq: 0
      stamp: 
        secs: 1480441052
        nsecs:  72499681
      frame_id: camera_link
    child_frame_id: right_foot_1
    transform: 
      translation: 
        x: 2.63961246295
        y: -0.10435135763
        z: -0.79239366801
      rotation: 
        x: 0.499999999997
        y: 0.500001836603
        z: 0.499999999997
        w: 0.499998163397
---
transforms: 
  - 
    header: 
      seq: 0
      stamp: 
        secs: 1480441052
        nsecs: 109165247
      frame_id: camera_link
    child_frame_id: head_1
    transform: 
      translation: 
        x: 2.34764677096
        y: -0.0551415841318
        z: 0.621057660797
      rotation: 
        x: 0.485932210555
        y: 0.390561863117
        z: 0.551160097666
        w: 0.554575391236
---
transforms: 
  - 
    header: 
      seq: 0
      stamp: 
        secs: 1480441052
        nsecs: 109201266
      frame_id: camera_link
    child_frame_id: neck_1
    transform: 
      translation: 
        x: 2.40049965169
        y: -0.0369386617207
        z: 0.399950899273
      rotation: 
        x: 0.485932210555
        y: 0.390561863117
        z: 0.551160097666
        w: 0.554575391236
---
transforms: 
  - 
    header: 
      seq: 0
      stamp: 
        secs: 1480441052
        nsecs: 109206519
      frame_id: camera_link
    child_frame_id: torso_1
    transform: 
      translation: 
        x: 2.4529690322
        y: -0.0199955673785
        z: 0.189753944455
      rotation: 
        x: 0.482978788092
        y: 0.387957729734
        z: 0.552915469268
        w: 0.557229552373
---
transforms: 
  - 
    header: 
      seq: 0
      stamp: 
        secs: 1480441052
        nsecs: 109211325
      frame_id: camera_link
    child_frame_id: left_shoulder_1
    transform: 
      translation: 
        x: 2.41406848139
        y: 0.116648317443
        z: 0.415717939273
      rotation: 
        x: 0.738351397202
        y: 0.644022812939
        z: -0.0164137091915
        w: 0.199505440564
---
transforms: 
  - 
    header: 
      seq: 0
      stamp: 
        secs: 1480441052
        nsecs: 109216256
      frame_id: camera_link
    child_frame_id: left_elbow_1
    transform: 
      translation: 
        x: 2.45952015803
        y: 0.36927081411
        z: 0.340501982521
      rotation: 
        x: 0.478460583551
        y: 0.561036623419
        z: 0.562590122697
        w: -0.373906045705
---
transforms: 
  - 
    header: 
      seq: 0
      stamp: 
        secs: 1480441052
        nsecs: 109220263
      frame_id: camera_link
    child_frame_id: left_hand_1
    transform: 
      translation: 
        x: 2.38579934655
        y: 0.40188733409
        z: 0.609480555316
      rotation: 
        x: 0.499999999997
        y: 0.500001836603
        z: 0.499999999997
        w: 0.499998163397
---
transforms: 
  - 
    header: 
      seq: 0
      stamp: 
        secs: 1480441052
        nsecs: 109224746
      frame_id: camera_link
    child_frame_id: right_shoulder_1
    transform: 
      translation: 
        x: 2.386930822
        y: -0.190525640884
        z: 0.384183859272
      rotation: 
        x: 0.727373963069
        y: 0.609579933767
        z: 0.314552590032
        w: -0.0199020175221
---
transforms: 
  - 
    header: 
      seq: 0
      stamp: 
        secs: 1480441052
        nsecs: 109229897
      frame_id: camera_link
    child_frame_id: right_elbow_1
    transform: 
      translation: 
        x: 2.37223733368
        y: -0.408483595859
        z: 0.26405445768
      rotation: 
        x: 0.701560394098
        y: 0.398279830346
        z: -0.36855015982
        w: 0.461905801943
---
transforms: 
  - 
    header: 
      seq: 0
      stamp: 
        secs: 1480441052
        nsecs: 109233939
      frame_id: camera_link
    child_frame_id: right_hand_1
    transform: 
      translation: 
        x: 2.25676239798
        y: -0.469822154788
        z: 0.512667369638
      rotation: 
        x: 0.499999999997
        y: 0.500001836603
        z: 0.499999999997
        w: 0.499998163397
---
transforms: 
  - 
    header: 
      seq: 0
      stamp: 
        secs: 1480441052
        nsecs: 109238201
      frame_id: camera_link
    child_frame_id: left_hip_1
    transform: 
      translation: 
        x: 2.51421909098
        y: 0.0963373373549
        z: -0.0102397802877
      rotation: 
        x: 0.472451107141
        y: 0.403493670037
        z: 0.533916862427
        w: 0.573511633375
---
transforms: 
  - 
    header: 
      seq: 0
      stamp: 
        secs: 1480441052
        nsecs: 109280572
      frame_id: camera_link
    child_frame_id: left_knee_1
    transform: 
      translation: 
        x: 2.61206911515
        y: 0.103345082032
        z: -0.422028576603
      rotation: 
        x: 0.442633328904
        y: 0.37644358606
        z: 0.553074188893
        w: 0.597055193628
---
transforms: 
  - 
    header: 
      seq: 0
      stamp: 
        secs: 1480441052
        nsecs: 109285311
      frame_id: camera_link
    child_frame_id: left_foot_1
    transform: 
      translation: 
        x: 2.72780762867
        y: 0.104629412193
        z: -0.756303843046
      rotation: 
        x: 0.499999999997
        y: 0.500001836603
        z: 0.499999999997
        w: 0.499998163397
---
transforms: 
  - 
    header: 
      seq: 0
      stamp: 
        secs: 1480441052
        nsecs: 109289355
      frame_id: camera_link
    child_frame_id: right_hip_1
    transform: 
      translation: 
        x: 2.49665773446
        y: -0.102442283427
        z: -0.0306462404369
      rotation: 
        x: 0.39234907638
        y: 0.379524467946
        z: 0.5475617361
        w: 0.634192025851
---
transforms: 
  - 
    header: 
      seq: 0
      stamp: 
        secs: 1480441052
        nsecs: 109293901
      frame_id: camera_link
    child_frame_id: right_knee_1
    transform: 
      translation: 
        x: 2.66411935238
        y: -0.141479456698
        z: -0.416167073455
      rotation: 
        x: 0.567598626732
        y: 0.461579089959
        z: 0.475431669561
        w: 0.488611573975
---
transforms: 
  - 
    header: 
      seq: 0
      stamp: 
        secs: 1480441052
        nsecs: 109298033
      frame_id: camera_link
    child_frame_id: right_foot_1
    transform: 
      translation: 
        x: 2.64193548359
        y: -0.105462921362
        z: -0.787353149199
      rotation: 
        x: 0.499999999997
        y: 0.500001836603
        z: 0.499999999997
        w: 0.499998163397
---
transforms: 
  - 
    header: 
      seq: 0
      stamp: 
        secs: 1480441052
        nsecs: 141389562
      frame_id: camera_link
    child_frame_id: head_1
    transform: 
      translation: 
        x: 2.3510158835
        y: -0.0464195640048
        z: 0.622133209944
      rotation: 
        x: 0.478176956422
        y: 0.382414681389
        z: 0.552176400266
        w: 0.565868388226
---
transforms: 
  - 
    header: 
      seq: 0
      stamp: 
        secs: 1480441052
        nsecs: 141425083
      frame_id: camera_link
    child_frame_id: neck_1
    transform: 
      translation: 
        x: 2.40854629326
        y: -0.0315252734754
        z: 0.408278262294
      rotation: 
        x: 0.478176956422
        y: 0.382414681389
        z: 0.552176400266
        w: 0.565868388226
---
transforms: 
  - 
    header: 
      seq: 0
      stamp: 
        secs: 1480441052
        nsecs: 141431010
      frame_id: camera_link
    child_frame_id: torso_1
    transform: 
      translation: 
        x: 2.46451178475
        y: -0.0185966392527
        z: 0.198758708575
      rotation: 
        x: 0.476929893449
        y: 0.384504080865
        z: 0.549811813798
        w: 0.567804066506
---
transforms: 
  - 
    header: 
      seq: 0
      stamp: 
        secs: 1480441052
        nsecs: 141435622
      frame_id: camera_link
    child_frame_id: left_shoulder_1
    transform: 
      translation: 
        x: 2.42400134544
        y: 0.122075012559
        z: 0.421884589799
      rotation: 
        x: 0.736938993697
        y: 0.639780322981
        z: -0.029521435419
        w: 0.216172483787
---
transforms: 
  - 
    header: 
      seq: 0
      stamp: 
        secs: 1480441052
        nsecs: 141440761
      frame_id: camera_link
    child_frame_id: left_elbow_1
    transform: 
      translation: 
        x: 2.4712242591
        y: 0.366628431564
        z: 0.337724076981
      rotation: 
        x: 0.492012809066
        y: 0.574066798761
        z: 0.549430585199
        w: -0.355663799569
---
transforms: 
  - 
    header: 
      seq: 0
      stamp: 
        secs: 1480441052
        nsecs: 141445361
      frame_id: camera_link
    child_frame_id: left_hand_1
    transform: 
      translation: 
        x: 2.39730367288
        y: 0.415581407109
        z: 0.604606306515
      rotation: 
        x: 0.499999999997
        y: 0.500001836603
        z: 0.499999999997
        w: 0.499998163397
---
transforms: 
  - 
    header: 
      seq: 0
      stamp: 
        secs: 1480441052
        nsecs: 141450906
      frame_id: camera_link
    child_frame_id: right_shoulder_1
    transform: 
      translation: 
        x: 2.39309124108
        y: -0.185125578583
        z: 0.39467190427
      rotation: 
        x: 0.729346731688
        y: 0.611349278335
        z: 0.30628885066
        w: -0.0221933507347
---
transforms: 
  - 
    header: 
      seq: 0
      stamp: 
        secs: 1480441052
        nsecs: 141509433
      frame_id: camera_link
    child_frame_id: right_elbow_1
    transform: 
      translation: 
        x: 2.3771238331
        y: -0.401255947294
        z: 0.27803478641
      rotation: 
        x: 0.699796959273
        y: 0.405413370742
        z: -0.368841141141
        w: 0.458127086318
---
transforms: 
  - 
    header: 
      seq: 0
      stamp: 
        secs: 1480441052
        nsecs: 141515044
      frame_id: camera_link
    child_frame_id: right_hand_1
    transform: 
      translation: 
        x: 2.2655932413
        y: -0.465365426794
        z: 0.526046853802
      rotation: 
        x: 0.499999999997
        y: 0.500001836603
        z: 0.499999999997
        w: 0.499998163397
---
transforms: 
  - 
    header: 
      seq: 0
      stamp: 
        secs: 1480441052
        nsecs: 141519470
      frame_id: camera_link
    child_frame_id: left_hip_1
    transform: 
      translation: 
        x: 2.53047889659
        y: 0.0937338127909
        z: -0.00195553825541
      rotation: 
        x: 0.466848198728
        y: 0.396091695445
        z: 0.534436199104
        w: 0.582702391647
---
transforms: 
  - 
    header: 
      seq: 0
      stamp: 
        secs: 1480441052
        nsecs: 141524872
      frame_id: camera_link
    child_frame_id: left_knee_1
    transform: 
      translation: 
        x: 2.63898200003
        y: 0.0967952465013
        z: -0.416848682784
      rotation: 
        x: 0.461423730142
        y: 0.39071598265
        z: 0.53850250307
        w: 0.586893701066
---
transforms: 
  - 
    header: 
      seq: 0
      stamp: 
        secs: 1480441052
        nsecs: 141530638
      frame_id: camera_link
    child_frame_id: left_foot_1
    transform: 
      translation: 
        x: 2.73527175442
        y: 0.098849875706
        z: -0.758157386088
      rotation: 
        x: 0.499999999997
        y: 0.500001836603
        z: 0.499999999997
        w: 0.499998163397
---
transforms: 
  - 
    header: 
      seq: 0
      stamp: 
        secs: 1480441052
        nsecs: 141538355
      frame_id: camera_link
    child_frame_id: right_hip_1
    transform: 
      translation: 
        x: 2.5104756559
        y: -0.105069819036
        z: -0.0195661215151
      rotation: 
        x: 0.400076052466
        y: 0.379279754863
        z: 0.545657535794
        w: 0.631144890992
---
transforms: 
  - 
    header: 
      seq: 0
      stamp: 
        secs: 1480441052
        nsecs: 141547258
      frame_id: camera_link
    child_frame_id: right_knee_1
    transform: 
      translation: 
        x: 2.67551462606
        y: -0.141219389816
        z: -0.413181397539
      rotation: 
        x: 0.567270302592
        y: 0.467790724987
        z: 0.467221438086
        w: 0.490999357643
---
transforms: 
  - 
    header: 
      seq: 0
      stamp: 
        secs: 1480441052
        nsecs: 141561285
      frame_id: camera_link
    child_frame_id: right_foot_1
    transform: 
      translation: 
        x: 2.6486537771
        y: -0.111271116594
        z: -0.784507897998
      rotation: 
        x: 0.499999999997
        y: 0.500001836603
        z: 0.499999999997
        w: 0.499998163397
---
transforms: 
  - 
    header: 
      seq: 0
      stamp: 
        secs: 1480441052
        nsecs: 173240767
      frame_id: camera_link
    child_frame_id: head_1
    transform: 
      translation: 
        x: 2.35322849625
        y: -0.0376550752866
        z: 0.621714378575
      rotation: 
        x: 0.465573843335
        y: 0.378476777076
        z: 0.558146147397
        w: 0.573122328794
---
transforms: 
  - 
    header: 
      seq: 0
      stamp: 
        secs: 1480441052
        nsecs: 173267657
      frame_id: camera_link
    child_frame_id: neck_1
    transform: 
      translation: 
        x: 2.41608803406
        y: -0.0252797185055
        z: 0.412553106417
      rotation: 
        x: 0.465573843335
        y: 0.378476777076
        z: 0.558146147397
        w: 0.573122328794
---
transforms: 
  - 
    header: 
      seq: 0
      stamp: 
        secs: 1480441052
        nsecs: 174297887
      frame_id: odom
    child_frame_id: base_link
    transform: 
      translation: 
        x: 0.0
        y: 0.0
        z: 0.0
      rotation: 
        x: 0.0
        y: 0.0
        z: 0.0
        w: 1.0
---
transforms: 
  - 
    header: 
      seq: 0
      stamp: 
        secs: 1480441052
        nsecs: 173274205
      frame_id: camera_link
    child_frame_id: torso_1
    transform: 
      translation: 
        x: 2.47630451698
        y: -0.0153508455083
        z: 0.204079862767
      rotation: 
        x: 0.466000690094
        y: 0.383901103382
        z: 0.552899166815
        w: 0.574252393107
---
transforms: 
  - 
    header: 
      seq: 0
      stamp: 
        secs: 1480441052
        nsecs: 173279560
      frame_id: camera_link
    child_frame_id: left_shoulder_1
    transform: 
      translation: 
        x: 2.4306317007
        y: 0.128581422716
        z: 0.424081892105
      rotation: 
        x: 0.738856265216
        y: 0.634283002374
        z: -0.0250179574906
        w: 0.226164970881
---
transforms: 
  - 
    header: 
      seq: 0
      stamp: 
        secs: 1480441052
        nsecs: 173288498
      frame_id: camera_link
    child_frame_id: left_elbow_1
    transform: 
      translation: 
        x: 2.48110365156
        y: 0.369339680011
        z: 0.339872539227
      rotation: 
        x: 0.492092810609
        y: 0.579721675425
        z: 0.551705637718
        w: -0.342619809848
---
transforms: 
  - 
    header: 
      seq: 0
      stamp: 
        secs: 1480441052
        nsecs: 173314439
      frame_id: camera_link
    child_frame_id: left_hand_1
    transform: 
      translation: 
        x: 2.40188494368
        y: 0.4236264984
        z: 0.605021633925
      rotation: 
        x: 0.499999999997
        y: 0.500001836603
        z: 0.499999999997
        w: 0.499998163397
---
transforms: 
  - 
    header: 
      seq: 0
      stamp: 
        secs: 1480441052
        nsecs: 173320590
      frame_id: camera_link
    child_frame_id: right_shoulder_1
    transform: 
      translation: 
        x: 2.40154436743
        y: -0.179140852098
        z: 0.40102432073
      rotation: 
        x: 0.732194816012
        y: 0.616066821031
        z: 0.290362086957
        w: -0.00650245236962
---
transforms: 
  - 
    header: 
      seq: 0
      stamp: 
        secs: 1480441052
        nsecs: 173327018
      frame_id: camera_link
    child_frame_id: right_elbow_1
    transform: 
      translation: 
        x: 2.38359996727
        y: -0.402105075118
        z: 0.293507632495
      rotation: 
        x: 0.691575322634
        y: 0.399109376999
        z: -0.377018548539
        w: 0.469353057275
---
transforms: 
  - 
    header: 
      seq: 0
      stamp: 
        secs: 1480441052
        nsecs: 173333044
      frame_id: camera_link
    child_frame_id: right_hand_1
    transform: 
      translation: 
        x: 2.2732392678
        y: -0.457160381618
        z: 0.542530773471
      rotation: 
        x: 0.499999999997
        y: 0.500001836603
        z: 0.499999999997
        w: 0.499998163397
---
transforms: 
  - 
    header: 
      seq: 0
      stamp: 
        secs: 1480441052
        nsecs: 173338587
      frame_id: camera_link
    child_frame_id: left_hip_1
    transform: 
      translation: 
        x: 2.54593179442
        y: 0.0941371364593
        z: 0.00306656074468
      rotation: 
        x: 0.466839944561
        y: 0.393116405173
        z: 0.54250818764
        w: 0.577238966538
---
transforms: 
  - 
    header: 
      seq: 0
      stamp: 
        secs: 1480441052
        nsecs: 173343945
      frame_id: camera_link
    child_frame_id: left_knee_1
    transform: 
      translation: 
        x: 2.65785307618
        y: 0.104717335777
        z: -0.413718319973
      rotation: 
        x: 0.465755846046
        y: 0.409255794706
        z: 0.525980122584
        w: 0.58217359698
---
transforms: 
  - 
    header: 
      seq: 0
      stamp: 
        secs: 1480441052
        nsecs: 173349333
      frame_id: camera_link
    child_frame_id: left_foot_1
    transform: 
      translation: 
        x: 2.73996095473
        y: 0.100159859971
        z: -0.759208978019
      rotation: 
        x: 0.499999999997
        y: 0.500001836603
        z: 0.499999999997
        w: 0.499998163397
---
transforms: 
  - 
    header: 
      seq: 0
      stamp: 
        secs: 1480441052
        nsecs: 173354632
      frame_id: camera_link
    child_frame_id: right_hip_1
    transform: 
      translation: 
        x: 2.52711020539
        y: -0.104981081481
        z: -0.0118533225098
      rotation: 
        x: 0.412235639176
        y: 0.385186008638
        z: 0.549289033003
        w: 0.61642118293
---
transforms: 
  - 
    header: 
      seq: 0
      stamp: 
        secs: 1480441052
        nsecs: 173359667
      frame_id: camera_link
    child_frame_id: right_knee_1
    transform: 
      translation: 
        x: 2.68216057792
        y: -0.129422124193
        z: -0.413426600174
      rotation: 
        x: 0.558014395121
        y: 0.479547465386
        z: 0.466089857808
        w: 0.491339401766
---
transforms: 
  - 
    header: 
      seq: 0
      stamp: 
        secs: 1480441052
        nsecs: 173365608
      frame_id: camera_link
    child_frame_id: right_foot_1
    transform: 
      translation: 
        x: 2.65357931197
        y: -0.108223010428
        z: -0.78207029402
      rotation: 
        x: 0.499999999997
        y: 0.500001836603
        z: 0.499999999997
        w: 0.499998163397
---
transforms: 
  - 
    header: 
      seq: 0
      stamp: 
        secs: 1480441052
        nsecs: 209356643
      frame_id: camera_link
    child_frame_id: head_1
    transform: 
      translation: 
        x: 2.35433148264
        y: -0.02594583509
        z: 0.622273090343
      rotation: 
        x: 0.451923673736
        y: 0.375192369584
        z: 0.560037289846
        w: 0.584255006743
---
transforms: 
  - 
    header: 
      seq: 0
      stamp: 
        secs: 1480441052
        nsecs: 209383184
      frame_id: camera_link
    child_frame_id: neck_1
    transform: 
      translation: 
        x: 2.42291248349
        y: -0.0181688955558
        z: 0.415998851613
      rotation: 
        x: 0.451923673736
        y: 0.375192369584
        z: 0.560037289846
        w: 0.584255006743
---
transforms: 
  - 
    header: 
      seq: 0
      stamp: 
        secs: 1480441052
        nsecs: 209388033
      frame_id: camera_link
    child_frame_id: torso_1
    transform: 
      translation: 
        x: 2.48838264934
        y: -0.0124145704833
        z: 0.209017623578
      rotation: 
        x: 0.453838718001
        y: 0.381404755333
        z: 0.554327658216
        w: 0.584193185503
---
transforms: 
  - 
    header: 
      seq: 0
      stamp: 
        secs: 1480441052
        nsecs: 209392454
      frame_id: camera_link
    child_frame_id: left_shoulder_1
    transform: 
      translation: 
        x: 2.43755770244
        y: 0.135852062781
        z: 0.424913226527
      rotation: 
        x: 0.735510957602
        y: 0.635682400507
        z: -0.0195500681848
        w: 0.233557940921
---
transforms: 
  - 
    header: 
      seq: 0
      stamp: 
        secs: 1480441052
        nsecs: 209396901
      frame_id: camera_link
    child_frame_id: left_elbow_1
    transform: 
      translation: 
        x: 2.48652625058
        y: 0.373188454812
        z: 0.341433798605
      rotation: 
        x: 0.484481013446
        y: 0.585518425444
        z: 0.553747884863
        w: -0.340308097296
---
transforms: 
  - 
    header: 
      seq: 0
      stamp: 
        secs: 1480441052
        nsecs: 209422870
      frame_id: camera_link
    child_frame_id: left_hand_1
    transform: 
      translation: 
        x: 2.40214030392
        y: 0.42695145051
        z: 0.605392665702
      rotation: 
        x: 0.499999999997
        y: 0.500001836603
        z: 0.499999999997
        w: 0.499998163397
---
transforms: 
  - 
    header: 
      seq: 0
      stamp: 
        secs: 1480441052
        nsecs: 209427609
      frame_id: camera_link
    child_frame_id: right_shoulder_1
    transform: 
      translation: 
        x: 2.40826726454
        y: -0.172189853893
        z: 0.407084415664
      rotation: 
        x: 0.725926628557
        y: 0.61726929228
        z: 0.30254744675
        w: 0.0217759781483
---
transforms: 
  - 
    header: 
      seq: 0
      stamp: 
        secs: 1480441052
        nsecs: 209432474
      frame_id: camera_link
    child_frame_id: right_elbow_1
    transform: 
      translation: 
        x: 2.39484656834
        y: -0.394540946892
        z: 0.306254051145
      rotation: 
        x: 0.69672220373
        y: 0.377863596762
        z: -0.364804954243
        w: 0.488584300231
---
transforms: 
  - 
    header: 
      seq: 0
      stamp: 
        secs: 1480441052
        nsecs: 209436366
      frame_id: camera_link
    child_frame_id: right_hand_1
    transform: 
      translation: 
        x: 2.27107150782
        y: -0.441496021905
        z: 0.548565144226
      rotation: 
        x: 0.499999999997
        y: 0.500001836603
        z: 0.499999999997
        w: 0.499998163397
---
transforms: 
  - 
    header: 
      seq: 0
      stamp: 
        secs: 1480441052
        nsecs: 209440183
      frame_id: camera_link
    child_frame_id: left_hip_1
    transform: 
      translation: 
        x: 2.5633297652
        y: 0.0930057840448
        z: 0.00780486964114
      rotation: 
        x: 0.464337011907
        y: 0.389222222616
        z: 0.547894457686
        w: 0.576809209386
---
transforms: 
  - 
    header: 
      seq: 0
      stamp: 
        secs: 1480441052
        nsecs: 209444508
      frame_id: camera_link
    child_frame_id: left_knee_1
    transform: 
      translation: 
        x: 2.68053350643
        y: 0.106690090596
        z: -0.408935932579
      rotation: 
        x: 0.475985067826
        y: 0.427942904705
        z: 0.512669043554
        w: 0.572253036078
---
transforms: 
  - 
    header: 
      seq: 0
      stamp: 
        secs: 1480441052
        nsecs: 209448395
      frame_id: camera_link
    child_frame_id: left_foot_1
    transform: 
      translation: 
        x: 2.7436211303
        y: 0.0992273248931
        z: -0.754881049569
      rotation: 
        x: 0.499999999997
        y: 0.500001836603
        z: 0.499999999997
        w: 0.499998163397
---
transforms: 
  - 
    header: 
      seq: 0
      stamp: 
        secs: 1480441052
        nsecs: 209452311
      frame_id: camera_link
    child_frame_id: right_hip_1
    transform: 
      translation: 
        x: 2.54437586517
        y: -0.106326286311
        z: -0.00373204803937
      rotation: 
        x: 0.425071300277
        y: 0.39247629767
        z: 0.547988938981
        w: 0.604139775385
---
transforms: 
  - 
    header: 
      seq: 0
      stamp: 
        secs: 1480441052
        nsecs: 209456890
      frame_id: camera_link
    child_frame_id: right_knee_1
    transform: 
      translation: 
        x: 2.68646549046
        y: -0.122784161298
        z: -0.4119884446
      rotation: 
        x: 0.551648715288
        y: 0.491192343601
        z: 0.460019004585
        w: 0.492743637127
---
transforms: 
  - 
    header: 
      seq: 0
      stamp: 
        secs: 1480441052
        nsecs: 209460811
      frame_id: camera_link
    child_frame_id: right_foot_1
    transform: 
      translation: 
        x: 2.65373753372
        y: -0.111011050008
        z: -0.779786053878
      rotation: 
        x: 0.499999999997
        y: 0.500001836603
        z: 0.499999999997
        w: 0.499998163397
---
transforms: 
  - 
    header: 
      seq: 0
      stamp: 
        secs: 1480441052
        nsecs: 241213866
      frame_id: camera_link
    child_frame_id: head_1
    transform: 
      translation: 
        x: 2.36287077119
        y: -0.0166622534609
        z: 0.626632739153
      rotation: 
        x: 0.449835233636
        y: 0.375675838792
        z: 0.557630532015
        w: 0.587847017933
---
transforms: 
  - 
    header: 
      seq: 0
      stamp: 
        secs: 1480441052
        nsecs: 241254315
      frame_id: camera_link
    child_frame_id: neck_1
    transform: 
      translation: 
        x: 2.4317674557
        y: -0.0108907277299
        z: 0.421029214595
      rotation: 
        x: 0.449835233636
        y: 0.375675838792
        z: 0.557630532015
        w: 0.587847017933
---
transforms: 
  - 
    header: 
      seq: 0
      stamp: 
        secs: 1480441052
        nsecs: 241260537
      frame_id: camera_link
    child_frame_id: torso_1
    transform: 
      translation: 
        x: 2.49872859728
        y: -0.00720544558548
        z: 0.2144101637
      rotation: 
        x: 0.450409629725
        y: 0.380525819828
        z: 0.5528233126
        w: 0.588827352405
---
transforms: 
  - 
    header: 
      seq: 0
      stamp: 
        secs: 1480441052
        nsecs: 241265293
      frame_id: camera_link
    child_frame_id: left_shoulder_1
    transform: 
      translation: 
        x: 2.44713801206
        y: 0.143137727244
        z: 0.428757734794
      rotation: 
        x: 0.73057991246
        y: 0.636815151155
        z: -0.00904980665736
        w: 0.246246940629
---
transforms: 
  - 
    header: 
      seq: 0
      stamp: 
        secs: 1480441052
        nsecs: 241269851
      frame_id: camera_link
    child_frame_id: left_elbow_1
    transform: 
      translation: 
        x: 2.49625693176
        y: 0.384097059891
        z: 0.343709092452
      rotation: 
        x: 0.46290774511
        y: 0.589768151447
        z: 0.565283375889
        w: -0.344012575351
---
transforms: 
  - 
    header: 
      seq: 0
      stamp: 
        secs: 1480441052
        nsecs: 241274132
      frame_id: camera_link
    child_frame_id: left_hand_1
    transform: 
      translation: 
        x: 2.40192081688
        y: 0.428366793942
        z: 0.605551052739
      rotation: 
        x: 0.499999999997
        y: 0.500001836603
        z: 0.499999999997
        w: 0.499998163397
---
transforms: 
  - 
    header: 
      seq: 0
      stamp: 
        secs: 1480441052
        nsecs: 241278422
      frame_id: camera_link
    child_frame_id: right_shoulder_1
    transform: 
      translation: 
        x: 2.41639689934
        y: -0.164919209407
        z: 0.413300694396
      rotation: 
        x: 0.722395658792
        y: 0.622893849091
        z: 0.296254409932
        w: 0.0487964088763
---
transforms: 
  - 
    header: 
      seq: 0
      stamp: 
        secs: 1480441052
        nsecs: 241284491
      frame_id: camera_link
    child_frame_id: right_elbow_1
    transform: 
      translation: 
        x: 2.40442817044
        y: -0.394269366287
        z: 0.322624774007
      rotation: 
        x: 0.693196142999
        y: 0.365685805715
        z: -0.359306664539
        w: 0.50660805328
---
transforms: 
  - 
    header: 
      seq: 0
      stamp: 
        secs: 1480441052
        nsecs: 241318710
      frame_id: camera_link
    child_frame_id: right_hand_1
    transform: 
      translation: 
        x: 2.27290673977
        y: -0.433899121853
        z: 0.563477307895
      rotation: 
        x: 0.499999999997
        y: 0.500001836603
        z: 0.499999999997
        w: 0.499998163397
---
transforms: 
  - 
    header: 
      seq: 0
      stamp: 
        secs: 1480441052
        nsecs: 241323608
      frame_id: camera_link
    child_frame_id: left_hip_1
    transform: 
      translation: 
        x: 2.57563470365
        y: 0.0961387180373
        z: 0.0127915950725
      rotation: 
        x: 0.466548541437
        y: 0.387225525697
        z: 0.549098939008
        w: 0.575221006146
---
transforms: 
  - 
    header: 
      seq: 0
      stamp: 
        secs: 1480441052
        nsecs: 241328407
      frame_id: camera_link
    child_frame_id: left_knee_1
    transform: 
      translation: 
        x: 2.69294975978
        y: 0.112779819736
        z: -0.404593082679
      rotation: 
        x: 0.486147701796
        y: 0.439288019427
        z: 0.503186854132
        w: 0.563462011013
---
transforms: 
  - 
    header: 
      seq: 0
      stamp: 
        secs: 1480441052
        nsecs: 241332524
      frame_id: camera_link
    child_frame_id: left_foot_1
    transform: 
      translation: 
        x: 2.74288281586
        y: 0.105312534889
        z: -0.757831913557
      rotation: 
        x: 0.499999999997
        y: 0.500001836603
        z: 0.499999999997
        w: 0.499998163397
---
transforms: 
  - 
    header: 
      seq: 0
      stamp: 
        secs: 1480441052
        nsecs: 241337329
      frame_id: camera_link
    child_frame_id: right_hip_1
    transform: 
      translation: 
        x: 2.55574477405
        y: -0.103179043012
        z: 0.00279063053721
      rotation: 
        x: 0.438857472214
        y: 0.399406253695
        z: 0.543459222737
        w: 0.593743073065
---
transforms: 
  - 
    header: 
      seq: 0
      stamp: 
        secs: 1480441052
        nsecs: 241341583
      frame_id: camera_link
    child_frame_id: right_knee_1
    transform: 
      translation: 
        x: 2.68347669046
        y: -0.113627052525
        z: -0.411127624295
      rotation: 
        x: 0.549202459118
        y: 0.496052771308
        z: 0.456496573885
        w: 0.49388175205
---
transforms: 
  - 
    header: 
      seq: 0
      stamp: 
        secs: 1480441052
        nsecs: 241345983
      frame_id: camera_link
    child_frame_id: right_foot_1
    transform: 
      translation: 
        x: 2.64861641989
        y: -0.106197264192
        z: -0.780438622958
      rotation: 
        x: 0.499999999997
        y: 0.500001836603
        z: 0.499999999997
        w: 0.499998163397
---
transforms: 
  - 
    header: 
      seq: 0
      stamp: 
        secs: 1480441052
        nsecs: 272523698
      frame_id: camera_link
    child_frame_id: head_1
    transform: 
      translation: 
        x: 2.38164980314
        y: -0.00649818301676
        z: 0.631139567146
      rotation: 
        x: 0.453551332153
        y: 0.389253556034
        z: 0.549545900872
        w: 0.58375693662
---
transforms: 
  - 
    header: 
      seq: 0
      stamp: 
        secs: 1480441052
        nsecs: 272546422
      frame_id: camera_link
    child_frame_id: neck_1
    transform: 
      translation: 
        x: 2.44390489149
        y: -0.00317103573904
        z: 0.424560023283
      rotation: 
        x: 0.453551332153
        y: 0.389253556034
        z: 0.549545900872
        w: 0.58375693662
---
transforms: 
  - 
    header: 
      seq: 0
      stamp: 
        secs: 1480441052
        nsecs: 272571412
      frame_id: camera_link
    child_frame_id: torso_1
    transform: 
      translation: 
        x: 2.50755451386
        y: -0.00171871835327
        z: 0.216860860651
      rotation: 
        x: 0.450334830999
        y: 0.389594074696
        z: 0.548216406212
        w: 0.587259541353
---
transforms: 
  - 
    header: 
      seq: 0
      stamp: 
        secs: 1480441052
        nsecs: 272577762
      frame_id: camera_link
    child_frame_id: left_shoulder_1
    transform: 
      translation: 
        x: 2.45868266608
        y: 0.151004484128
        z: 0.430166750005
      rotation: 
        x: 0.721950469643
        y: 0.650645281533
        z: 0.001512212811
        w: 0.235469637562
---
transforms: 
  - 
    header: 
      seq: 0
      stamp: 
        secs: 1480441052
        nsecs: 272624865
      frame_id: camera_link
    child_frame_id: left_elbow_1
    transform: 
      translation: 
        x: 2.49815146006
        y: 0.393037557573
        z: 0.351847726851
      rotation: 
        x: 0.454490312228
        y: 0.593302093557
        z: 0.560939649406
        w: -0.356058831651
---
transforms: 
  - 
    header: 
      seq: 0
      stamp: 
        secs: 1480441052
        nsecs: 272629532
      frame_id: camera_link
    child_frame_id: left_hand_1
    transform: 
      translation: 
        x: 2.40416717348
        y: 0.432468700387
        z: 0.614745624566
      rotation: 
        x: 0.499999999997
        y: 0.500001836603
        z: 0.499999999997
        w: 0.499998163397
---
transforms: 
  - 
    header: 
      seq: 0
      stamp: 
        secs: 1480441052
        nsecs: 272634046
      frame_id: camera_link
    child_frame_id: right_shoulder_1
    transform: 
      translation: 
        x: 2.4291271169
        y: -0.157346576587
        z: 0.418953296561
      rotation: 
        x: 0.72601660568
        y: 0.620631293651
        z: 0.285520340122
        w: 0.0787071851484
---
transforms: 
  - 
    header: 
      seq: 0
      stamp: 
        secs: 1480441052
        nsecs: 272639116
      frame_id: camera_link
    child_frame_id: right_elbow_1
    transform: 
      translation: 
        x: 2.41270727667
        y: -0.390642932068
        z: 0.340814349309
      rotation: 
        x: 0.694649178337
        y: 0.351906788408
        z: -0.355083763069
        w: 0.51724235375
---
transforms: 
  - 
    header: 
      seq: 0
      stamp: 
        secs: 1480441052
        nsecs: 272643332
      frame_id: camera_link
    child_frame_id: right_hand_1
    transform: 
      translation: 
        x: 2.27409206229
        y: -0.424336770087
        z: 0.578427193678
      rotation: 
        x: 0.499999999997
        y: 0.500001836603
        z: 0.499999999997
        w: 0.499998163397
---
transforms: 
  - 
    header: 
      seq: 0
      stamp: 
        secs: 1480441052
        nsecs: 272647389
      frame_id: camera_link
    child_frame_id: left_hip_1
    transform: 
      translation: 
        x: 2.58076652724
        y: 0.0994980584818
        z: 0.0127897146499
      rotation: 
        x: 0.46204297791
        y: 0.385201643576
        z: 0.554076941046
        w: 0.575443067342
---
transforms: 
  - 
    header: 
      seq: 0
      stamp: 
        secs: 1480441052
        nsecs: 272692114
      frame_id: camera_link
    child_frame_id: left_knee_1
    transform: 
      translation: 
        x: 2.70309842896
        y: 0.117288524006
        z: -0.403474559166
      rotation: 
        x: 0.490979448425
        y: 0.454664810644
        z: 0.493885440218
        w: 0.555244327415
---
transforms: 
  - 
    header: 
      seq: 0
      stamp: 
        secs: 1480441052
        nsecs: 272696662
      frame_id: camera_link
    child_frame_id: left_foot_1
    transform: 
      translation: 
        x: 2.73991648625
